[
  {
    "id": 1,
    "bakery": "SiO Spiseri IFI",
    "location_name": "Ole-Johan Dahls hus",
    "rating": 6.25,
    "smell": 5,
    "aesthetic": 6,
    "juiciness": 6,
    "fluffiness": 6,
    "cinnamony": 7,
    "sweetness": 8,
    "taste": 6,
    "priceNok": 15,
    "date": "10/24/2022",
    "comment": "v buttery, tasted kinda good but too greasy overall",
    "geo_lat": 59.94342,
    "geo_long": 10.717823
  },
  {
    "id": 2,
    "bakery": "WB Samson Stortinget",
    "location_name": "Stortinget",
    "rating": 8.8125,
    "smell": 8,
    "aesthetic": 9,
    "juiciness": 8.5,
    "fluffiness": 8,
    "cinnamony": 9.5,
    "sweetness": 9.5,
    "taste": 9,
    "priceNok": 46,
    "date": "10/25/2022",
    "comment": "lovely optic, perfect amount of kanel + sugar, kanel in the dough, really juicy in the center",
    "geo_lat": 59.9129,
    "geo_long": 10.741507
  },
  {
    "id": 3,
    "bakery": "United Bakeries Nationaltheatret",
    "location_name": "Nationalthetret",
    "rating": 6.625,
    "smell": 6,
    "aesthetic": 9,
    "juiciness": 7,
    "fluffiness": 8,
    "cinnamony": 5,
    "sweetness": 6,
    "taste": 6,
    "priceNok": 49,
    "date": "10/25/2022",
    "comment": "wenig süß + zimtig, Kardamomnote, optisch top, etwas trockener",
    "geo_lat": 59.9151885,
    "geo_long": 10.7340975
  },
  {
    "id": 4,
    "bakery": "Baker Hansen Majorstuen",
    "location_name": "Majorstuen",
    "rating": 7.375,
    "smell": 6.5,
    "aesthetic": 8.5,
    "juiciness": 6.5,
    "fluffiness": 8,
    "cinnamony": 6.5,
    "sweetness": 8,
    "taste": 7.5,
    "priceNok": 31,
    "date": "10/26/2022",
    "comment": "looks good, kardamom, good level of sugar + kanel but could be more, cheap! 37 for eating in",
    "geo_lat": 59.92953,
    "geo_long": 10.716522
  },
  {
    "id": 5,
    "bakery": "Bergensbanen",
    "location_name": "Oslo - Bergen",
    "rating": 6.9375,
    "smell": 7,
    "aesthetic": 5,
    "juiciness": 6.5,
    "fluffiness": 8,
    "cinnamony": 7,
    "sweetness": 8,
    "taste": 7,
    "priceNok": 34,
    "date": "11/08/2022",
    "comment": "warm",
    "geo_lat": 59.910789,
    "geo_long": 10.756062
  },
  {
    "id": 6,
    "bakery": "Narvesen",
    "location_name": "Majorstuen",
    "rating": 6.5,
    "smell": 6.5,
    "aesthetic": 7,
    "juiciness": 7,
    "fluffiness": 6,
    "cinnamony": 6.5,
    "sweetness": 5,
    "taste": 7,
    "priceNok": 31,
    "date": "11/18/2022",
    "comment": "sehr teigig, kein kardamom, außen etwas trocken, nicht sehr süß/zimtig, “fühlt sich an als würde man auf rohem Teig mit Zimt rumkauen”",
    "geo_lat": 59.92948,
    "geo_long": 10.715905
  },
  {
    "id": 7,
    "bakery": "Grains",
    "location_name": "Majorstuen",
    "rating": 5.5,
    "smell": 6.5,
    "aesthetic": 8.5,
    "juiciness": 7,
    "fluffiness": 7,
    "cinnamony": 2,
    "sweetness": 5,
    "taste": 4,
    "priceNok": 44,
    "date": "11/18/2022",
    "comment": "intense cardamom, almost no cinnamon taste",
    "geo_lat": 59.93006,
    "geo_long": 10.715737
  }
]
